City_ID,City,Country,Max Temp,Current Description,Lat,Lng,Hotel Name
3,Jamestown,US,79.02,overcast clouds,42.097,-79.2353,Hampton Inn & Suites Jamestown
5,Ponta Do Sol,PT,81.23,clear sky,32.6667,-17.1,Hotel do Campo
6,Korla,CN,83.03,clear sky,41.7597,86.1469,Gulisitan Hotel
11,Hilo,US,85.28,moderate rain,19.7297,-155.09,Hilo Hawaiian Hotel
18,Lazaro Cardenas,MX,86.49,broken clouds,17.9583,-102.2,HOTEL QUINTA ANTIGUA
19,Bengbu,CN,72.86,clear sky,32.9408,117.3608,Howard Johnson Nanshan Plaza
20,Kasese,UG,70.79,overcast clouds,0.1833,30.0833,Sandton Hotel Kasese
23,Taybad,IR,82.63,clear sky,34.74,60.7756,لی پوش jean center
27,Kapaa,US,84.18,scattered clouds,22.0752,-159.319,Sheraton Kauai Coconut Beach Resort
28,Rikitea,PF,75.34,broken clouds,-23.1203,-134.9692,People ThankYou
30,Caravelas,BR,70.83,clear sky,-17.7125,-39.2481,Pousada dos Navegantes
33,San Quintin,MX,74.03,few clouds,30.4833,-115.95,Don Eddie's Sport Fishing Center
34,Meadow Lake,US,91.78,few clouds,34.8014,-106.5436,TumbleWeed RV Park
40,Vila Franca Do Campo,PT,78.19,scattered clouds,37.7167,-25.4333,Pestana Bahia Praia
41,Omboue,GA,72.32,broken clouds,-1.5746,9.2618,Hotel Olako
44,Locri,IT,81.32,clear sky,38.2414,16.2623,Grand Hotel President
45,Georgetown,MY,81.9,thunderstorm,5.4112,100.3354,Cititel Penang
46,Sao Felix Do Xingu,BR,86.83,broken clouds,-6.6447,-51.995,Rio Xingu Camping
49,Butaritari,KI,82.18,few clouds,3.0707,172.7902,Isles Sunset Lodge
51,Surt,LY,80.33,clear sky,31.2089,16.5887,الهادي ابوشعاله سرت
52,Avarua,CK,75.25,broken clouds,-21.2078,-159.775,Paradise Inn
53,Gulf Gate Estates,US,88.05,thunderstorm with light rain,27.2517,-82.5147,Best Western Plus Siesta Key Gateway
55,Lebanon,US,89.13,moderate rain,36.2081,-86.2911,Hampton Inn & Suites Lebanon
57,Bonthe,SL,76.01,broken clouds,7.5264,-12.505,Bonthe Holiday Village
61,Vaini,TO,73.74,overcast clouds,-21.2,-175.2,Keleti Beach Resort
62,Lake Mary,US,87.85,scattered clouds,28.7589,-81.3178,Hilton Garden Inn Orlando North/Lake Mary
64,Sabang,ID,80.8,moderate rain,5.8933,95.3214,Hotel Citra
67,Dong Hoi,VN,79.3,clear sky,17.4833,106.6,Nam Long Hotel
69,Kahului,US,87.82,few clouds,20.8947,-156.47,Maui Seaside Hotel
70,Odweyne,SO,75.42,broken clouds,9.4092,45.064,Eng Hiirey House
71,Kamaishi,JP,74.44,overcast clouds,39.2667,141.8833,Hotel Route Inn Kamaishi
72,Arraial Do Cabo,BR,71.56,clear sky,-22.9661,-42.0278,Pousada Porto Praia
74,Victoria,HK,86.38,clear sky,22.2855,114.1577,Mini Central
75,Qui Nhon,VN,77.85,overcast clouds,13.7667,109.2333,Seagull Hotel
76,Uchiza,PE,79.25,broken clouds,-8.4592,-76.4633,Hotel San Pedro
79,Batticaloa,LK,79.93,overcast clouds,7.7102,81.6924,Grand Star Guest House
80,Atuona,PF,77.07,light rain,-9.8,-139.0333,Villa Enata
81,Dhari,IN,76.66,overcast clouds,21.3333,71.0167,Anand pan & coldrinks
85,Half Moon Bay,US,84.42,overcast clouds,37.4636,-122.4286,"The Ritz-Carlton, Half Moon Bay"
86,Spring Hill,US,87.64,thunderstorm with heavy rain,28.4769,-82.5255,Millennium Suites Llc
89,Kavieng,PG,82.45,overcast clouds,-2.5744,150.7967,Nusa Island Retreat
91,Oistins,BB,84.29,scattered clouds,13.0667,-59.5333,Butterfly Beach Hotel
92,Hithadhoo,MV,80.83,overcast clouds,-0.6,73.0833,Scoop Guest House
93,Bumba,CD,71.67,overcast clouds,2.1833,22.4667,Père Carlos
96,Tura,IN,72.14,broken clouds,25.5198,90.2201,Hotel RIKMAN Continental
97,Cabo San Lucas,MX,95.61,few clouds,22.8909,-109.9124,Hotel Tesoro Los Cabos
100,Pekan,MY,78.91,overcast clouds,3.4836,103.3996,Pekan Budget Hotel
102,Touros,BR,76.42,scattered clouds,-5.1989,-35.4608,INN NEW HORIZON
109,Sur,OM,81.09,broken clouds,22.5667,59.5289,Sur Plaza Hotel
110,Padang,ID,75.9,light rain,-0.9492,100.3543,Mercure Padang
111,Ribeira Grande,PT,75.27,scattered clouds,38.5167,-28.7,Quinta da Meia Eira
114,Kirakira,SB,80.6,overcast clouds,-10.4544,161.9205,SanBiz Lodge
119,Kapit,MY,73.13,light rain,2.0167,112.9333,Hotel Meligai Kapit
121,Jalu,LY,85.84,clear sky,29.0331,21.5482,صاحبة الفخامة
124,Bilma,NE,93.2,scattered clouds,18.6853,12.9164,Expeditions Ténére voyages
126,Molos,GR,79.97,clear sky,38.8167,22.65,Area Sosta Camper - Parking Beach
128,Sept-Iles,CA,75.63,broken clouds,50.2001,-66.3821,Comfort Inn
134,Norman Wells,CA,77.02,overcast clouds,65.282,-126.8329,Heritage Hotel
140,Amarpur,IN,81.27,broken clouds,25.0333,86.9,Amit kirana store
141,Bengkulu,ID,75.36,overcast clouds,-3.8004,102.2655,Grage Hotel Bengkulu
142,Naze,JP,74.32,clear sky,28.3667,129.4833,Shishime Hotel
144,Sao Filipe,CV,77.81,overcast clouds,14.8961,-24.4956,Hotel Xaguate
145,Pimenta Bueno,BR,93.65,scattered clouds,-11.6725,-61.1936,Cristalina Palace Hotel
146,Champerico,GT,86.54,scattered clouds,14.3,-91.9167,"Hotel y restaurante ""El Diamante"""
147,Cumana,VE,81.43,overcast clouds,10.4635,-64.1775,Posada Acuarela Los Roques
150,Boldumsaz,TM,78.85,clear sky,42.1282,59.671,Sarar oba
153,Formosa Do Rio Preto,BR,76.95,broken clouds,-11.0483,-45.1931,Porto Center Hotel
154,Wuxi,CN,79.99,broken clouds,31.5689,120.2886,Wuxi Jinjiang Grand Hotel
156,Puerto Ayora,EC,76.96,overcast clouds,-0.7393,-90.3518,Finch Bay Galapagos Hotel
157,Torbay,CA,72.37,broken clouds,47.6666,-52.7314,Gallows Cove
159,Radnevo,BG,79.27,light rain,42.3,25.9333,Hotel Nakra
163,Lokoja,NG,75.0,overcast clouds,7.8024,6.743,Hotel Charvid
164,San Julian,MX,74.41,overcast clouds,21.0167,-102.1667,La Nueva España
165,Bethel,US,84.04,clear sky,41.3712,-73.414,Courtyard by Marriott Danbury
166,Yellowknife,CA,72.12,few clouds,62.456,-114.3525,The Explorer Hotel
168,Port Blair,IN,81.07,overcast clouds,11.6667,92.75,"Welcomhotel By ITC Hotels, Bay Island, Port Blair"
173,Zlobin,HR,70.9,clear sky,45.2924,14.6541,Hotel Bitoraj Fuzine
174,Keningau,MY,70.25,broken clouds,5.3378,116.1602,Sabindo Hotel
175,Ixtapa,MX,86.23,overcast clouds,20.7,-105.2,hotel la terminal
176,Havelock,US,89.56,clear sky,34.8791,-76.9013,Sherwood Motel
177,Tangkak,MY,78.67,light rain,2.2673,102.5453,Lakeside Village Homestay 水乡民宿
178,Mobara,JP,82.38,broken clouds,35.4167,140.3,Mobara Station Hotel
179,Pangkalanbuun,ID,73.33,overcast clouds,-2.6833,111.6167,Grand Kecubung Hotel
180,Jacmel,HT,91.24,clear sky,18.2342,-72.5347,Historic Hotel Florita
182,Columbus,US,77.05,light rain,39.9612,-82.9988,DoubleTree Suites by Hilton Hotel Columbus Downtown
183,Lufilufi,WS,80.38,light rain,-13.8745,-171.5986,Leuaina Beach Resort and Spa
185,Nicoya,CR,82.98,broken clouds,10.1483,-85.452,Las Cabinas Del Sueño
188,Sakakah,SA,89.17,clear sky,29.9697,40.2064,Fakhamat Al Orjoana Apartment
190,Cockburn Town,TC,82.65,clear sky,21.4612,-71.1419,Osprey Beach Hotel
191,Meulaboh,ID,74.03,overcast clouds,4.1363,96.1285,Kost Pria
192,Makakilo City,US,82.72,overcast clouds,21.3469,-158.0858,Marriott's Ko Olina Beach Club
193,Belmonte,BR,71.83,clear sky,-15.8631,-38.8828,Pousada Monte Carmelo O Pão
196,Lorengau,PG,81.23,overcast clouds,-2.0226,147.2712,Lorengau Harbourside Hotel
197,Pachino,IT,80.92,clear sky,36.7186,15.0907,Il Veliero
198,Nova Venecia,BR,72.84,overcast clouds,-18.7106,-40.4006,Hotel Ferrari - Rede Ferrari
202,Nouadhibou,MR,80.58,scattered clouds,20.931,-17.0347,El Medina
203,Puerto Del Rosario,ES,85.75,clear sky,28.5004,-13.8627,Hotel JM Puerto del Rosario
204,Guaymas,MX,96.89,scattered clouds,27.9333,-110.9,"Holiday Inn Express Guaymas, an IHG Hotel"
206,Bubaque,GW,79.97,overcast clouds,11.2833,-15.8333,"Casa Dora, Bubaque"
208,Urucara,BR,84.07,overcast clouds,-2.5364,-57.76,Pousada Maria Bonita
210,Fort Nelson,CA,83.79,broken clouds,58.8053,-122.7002,The Fort Nelson Hotel
212,Afua,BR,77.52,overcast clouds,-0.1567,-50.3867,Hotel Dias
214,Saint Anthony,US,76.24,mist,45.0205,-93.218,"Holiday Inn Express Roseville-St. Paul, an IHG Hotel"
217,Madang,PG,77.05,overcast clouds,-5.2246,145.7966,Comfort Inn Hotel
219,Miajadas,ES,81.79,clear sky,39.1513,-5.9084,Hotel Triana
220,Alofi,NU,76.89,broken clouds,-19.0595,-169.9187,Taloa Heights
221,Ternate,ID,79.83,overcast clouds,0.8,127.4,Sahid Bela Ternate Hotel
223,Bam,IR,83.39,light rain,29.106,58.357,Bam Tourist Hotel
224,Lompoc,US,84.34,clear sky,34.6391,-120.4579,"Holiday Inn Express Lompoc, an IHG Hotel"
225,Villa Park,US,83.01,broken clouds,41.8898,-87.989,Courtyard by Marriott Chicago Elmhurst/Oakbrook Area
226,Pokhara,NP,71.47,overcast clouds,28.2333,83.9833,OYO 170 Hotel View Point
228,Saint George,US,94.78,clear sky,37.1041,-113.5841,Best Western Plus Abbey Inn
229,Male,MV,84.15,broken clouds,4.1748,73.5089,Hotel Octave Maldives
230,Keti Bandar,PK,81.79,overcast clouds,24.1447,67.4497,Haji laloo memon house
233,Rantauprapat,ID,72.34,overcast clouds,2.1,99.8333,Permata Land Hotel & Resort
234,Cascais,PT,70.93,clear sky,38.6979,-9.4215,Hotel Vila Galé Cascais
236,Matam,SN,89.6,clear sky,15.6175,-13.3303,Auberge Beelel Jeeri
244,Sibu,MY,75.51,moderate rain,2.3,111.8167,RH HOTEL (4 Star)
247,Dire Dawa,ET,74.79,light rain,9.5931,41.8661,Samrat Hotel
248,Qeshm,IR,84.09,moderate rain,26.9581,56.2719,Qeshm Kavan Hotel
251,Acapulco,MX,87.62,broken clouds,16.8634,-99.8901,HS Hotsson Smart Acapulco
256,Awbari,LY,84.92,clear sky,26.5921,12.7805,فندق أوباري
257,Orange,US,99.23,scattered clouds,33.7,-117.7675,Meadows
258,Inirida,CO,82.67,broken clouds,3.8653,-67.9239,Fuente del Guania Hotel de Lujo
260,Barinitas,VE,72.88,broken clouds,8.7622,-70.4111,Rapsodia EcoTours
261,Sao Joao Da Barra,BR,73.49,scattered clouds,-21.6403,-41.0511,Pousada Porto De Canoas
262,Tautira,PF,74.41,light rain,-17.7333,-149.15,Pension Oaoa
263,Oussouye,SN,80.69,broken clouds,12.485,-16.5469,Auberge du Routard
265,Labuhan,ID,74.25,broken clouds,-6.8844,112.2051,DoubleFAG
269,Kandrian,PG,75.76,light rain,-6.2167,149.55,Kandrian Station
271,Contamana,PE,80.56,few clouds,-7.3333,-75.0167,Shiringal Touristic Park
272,Tual,ID,79.23,scattered clouds,-5.6667,132.75,Grand Vilia Hotel
273,Biak,ID,75.07,overcast clouds,-0.9131,122.8766,Penginapan Kim
274,Guanica,PR,87.13,few clouds,17.9716,-66.908,Copamarina Beach Resort & Spa
276,Harper,LR,75.25,overcast clouds,4.375,-7.7169,Screensaver
278,Astoria,US,70.43,clear sky,46.1879,-123.8313,Best Western Astoria Bayfront Hotel
281,Aragarcas,BR,88.45,clear sky,-15.8975,-52.2508,Pousada Tropical
282,Mecca,SA,93.2,broken clouds,21.4267,39.8261,"Makkah Clock Royal Tower, A Fairmont Hotel"
283,Komsomolskiy,UZ,83.12,clear sky,40.4272,71.7189,Ikathouse
287,Suba,PH,83.93,broken clouds,10.8438,121.0102,Jarnchi Pension House
289,Stephenville,US,104.94,scattered clouds,32.2207,-98.2023,La Quinta Inn & Suites by Wyndham Stephenville
291,Djibo,BF,93.24,overcast clouds,14.1022,-1.6306,Centre Des Ressources DPENA
293,Kota Belud,MY,75.38,broken clouds,6.351,116.4305,Tang Dynasty Lodge Kota Belud
294,Kaduna,NG,72.72,overcast clouds,10.5222,7.4383,HAMDALA HOTEL
295,Mianyang,CN,77.85,broken clouds,31.4593,104.7542,如家快捷酒店
298,Namatanai,PG,79.34,overcast clouds,-3.6667,152.4333,Seagulls Inn Namatani
300,Bajil,YE,90.77,overcast clouds,15.0584,43.2851,فندق حضرموت
302,Nuevo Progreso,MX,93.54,broken clouds,23.1667,-97.95,Balneario Rio el Paraiso
306,Pasighat,IN,76.05,overcast clouds,28.0667,95.3333,Siang Guest House
307,Buraydah,SA,97.25,broken clouds,26.326,43.975,Mövenpick Qassim
310,Limbang,MY,75.31,overcast clouds,4.75,115.0,Purnama Hotel
311,Hambantota,LK,78.62,overcast clouds,6.1241,81.1185,Bungalow 63
312,Boa Vista,BR,84.18,moderate rain,2.8197,-60.6733,Aipana Plaza Hotel
314,Los Llanos De Aridane,ES,76.75,clear sky,28.6585,-17.9182,Valle Aridane
315,Mawlaik,MM,75.69,scattered clouds,23.6333,94.4167,AKZ Guest House
316,Palu,ID,75.69,overcast clouds,-0.8917,119.8707,Hotel Santika Palu
317,Asau,RO,71.96,clear sky,46.4333,26.4,Casa Mika Ciobanus
319,Dalian,CN,76.93,few clouds,38.9122,121.6022,Kempinski Hotel Dalian
320,San Patricio,US,97.52,scattered clouds,28.017,-97.5169,"Motel 6 Sinton, TX"
321,Rodrigues Alves,BR,82.6,overcast clouds,-7.738,-72.6509,Pousada Aconchego
322,Oranjestad,AW,80.94,clear sky,12.524,-70.027,Divi Village Golf & Beach Resort
324,Luganville,VU,79.7,few clouds,-15.5333,167.1667,The Espiritu Hotel
326,Katsuura,JP,79.65,broken clouds,35.1333,140.3,Katsuura Hotel Mikazuki
331,Puerto Escondido,MX,86.83,broken clouds,15.85,-97.0667,Aldea del Bazar Hotel and Spa
333,Great Falls,US,83.59,clear sky,47.5002,-111.3008,La Quinta Inn & Suites by Wyndham Great Falls
334,Port-Gentil,GA,75.16,overcast clouds,-0.7193,8.7815,Fengshui Residence
337,Whitehorse,CA,77.77,broken clouds,60.7161,-135.0538,The Sternwheeler Hotel & Conference Centre
339,Fort Dodge,US,82.4,clear sky,42.4975,-94.168,"Country Inn & Suites by Radisson, Fort Dodge, IA"
343,Yarmouth,US,80.71,clear sky,41.7057,-70.2286,Blue Rock Resort
344,Giddarbaha,IN,84.61,broken clouds,30.2,74.6667,panchayti dharamshala gidderbaha
345,Ankang,CN,71.42,scattered clouds,32.68,109.0172,安琪酒店
348,Moerai,PF,70.93,few clouds,-22.4333,-151.3333,Le Manotel
349,Cancun,MX,89.53,scattered clouds,21.1743,-86.8466,Hotel Tankah Cancun
350,Marica,BR,75.49,clear sky,-22.9194,-42.8186,Marica Hills
352,Atbasar,KZ,70.63,overcast clouds,51.8,68.3333,Гостиничный Комплекс Saad
353,Madison,US,92.55,broken clouds,34.7334,-86.5667,Embassy Suites by Hilton Huntsville
354,Teahupoo,PF,73.36,light rain,-17.8333,-149.2667,Vanira Lodge
356,Taos,US,80.2,few clouds,36.4072,-105.5731,El Monte Sagrado
357,Elizabeth City,US,82.42,light rain,36.2946,-76.2511,Hampton Inn Elizabeth City
358,Anakapalle,IN,78.75,overcast clouds,17.6833,83.0167,Satya Lodge
361,Fortuna,US,72.93,scattered clouds,40.5982,-124.1573,Super 8 by Wyndham Fortuna
362,Kedgwick,CA,70.12,broken clouds,47.6446,-67.3434,A la Belle Etoile
365,Lamu,KE,75.09,scattered clouds,-2.2717,40.902,Lamu House
366,Lagoa,PT,73.76,scattered clouds,39.05,-27.9833,Casa Das Faias
368,Arlit,NE,100.31,few clouds,18.7369,7.3853,Case de Passage De la Prefecture
369,Alghero,IT,75.29,clear sky,40.5589,8.3181,Smy Carlos V Alghero
370,Dalbandin,PK,78.03,light rain,28.8947,64.4101,Sanjrani House
371,Benghazi,LY,80.83,clear sky,32.1167,20.0667,Tibesti Hotel
372,Faanui,PF,77.58,broken clouds,-16.4833,-151.75,Bora-Bora Pearl Beach Resort & Spa
373,Valdosta,US,93.97,clear sky,30.8327,-83.2785,Courtyard by Marriott Valdosta
376,Paracatu,BR,71.76,clear sky,-17.2222,-46.8747,Hotel Paracatu Plaza
377,Bathsheba,BB,84.81,scattered clouds,13.2167,-59.5167,Atlantis Hotel
380,Ucluelet,CA,79.09,clear sky,48.9329,-125.5528,Black Rock Oceanfront Resort
387,Shache,CN,85.14,scattered clouds,38.4167,77.2406,Delong Hotel
388,Boyolangu,ID,71.08,scattered clouds,-8.1181,111.8935,Yos ega cv
390,Luanda,AO,71.6,broken clouds,-8.8368,13.2343,EPIC SANA Luanda
392,Nhamunda,BR,86.63,broken clouds,-2.1861,-56.7131,Pousada Da Praia
393,Nantucket,US,80.71,clear sky,41.2835,-70.0995,Jared Coffin House
398,Honiara,SB,79.52,light rain,-9.4333,159.95,Heritage Park Hotel
400,Tacuarembo,UY,70.7,few clouds,-31.7333,-55.9833,Complejo San Fructuoso
403,Itoman,JP,81.37,scattered clouds,26.1247,127.6694,Southern Beach Hotel & Resort Okinawa
405,Barbacoas,CO,77.41,moderate rain,1.6715,-78.1398,edificio justin
406,Ciudad Bolivar,VE,89.31,broken clouds,8.1222,-63.5497,Hotel Edi
408,Fort Saint James,CA,87.26,clear sky,54.4333,-124.25,The View Hotel
410,Wadi Musa,JO,71.02,clear sky,30.3222,35.4793,Petra Palace Hotel
411,Carutapera,BR,78.85,overcast clouds,-1.195,-46.02,Lidera
412,Tomatlan,MX,90.18,overcast clouds,19.9333,-105.25,El Salvial
413,Gat,IL,80.4,clear sky,31.61,34.7642,OlusHome
416,Hasaki,JP,81.0,overcast clouds,35.7333,140.8333,Inubosaki Kanko Hotel
417,Damghan,IR,80.11,clear sky,36.1683,54.348,خوابگاه اساتيد دانشگاه دامغان
419,Manokwari,ID,78.04,broken clouds,-0.8667,134.0833,Swiss Belhotel Manokwari
420,Bo Phloi,TH,75.31,broken clouds,14.3236,99.5161,แอท เมืองพลอย รีสอร์ท At MuangPloy Resort
421,Fuengirola,ES,82.85,clear sky,36.54,-4.6247,Hotel Las Palmeras
422,Shimoda,JP,79.11,broken clouds,34.6667,138.95,Shimoda Tokyu Hotel
423,Kaputa,ZM,70.97,broken clouds,-8.4689,29.6619,Chelelwa Charlets
426,Encarnacion,PY,84.72,clear sky,-27.3333,-55.9,Hotel Posadas
431,Young,UY,70.84,broken clouds,-32.6833,-57.6333,Posada Gira el Sol
432,Tateyama,JP,79.11,broken clouds,34.9833,139.8667,Tateyama Seaside Hotel
433,Beba,CU,86.27,light rain,22.4437,-79.7253,Hostal Cubaustria
434,Kilindoni,TZ,75.9,broken clouds,-7.9139,39.6668,Bustani B&B
435,Buala,SB,80.37,light rain,-8.145,159.5921,Maringe Lagoon Lodge
436,Bosaso,SO,91.31,clear sky,11.2842,49.1816,Red Sea Hotel
437,Kisangani,CD,70.65,overcast clouds,0.5167,25.2,Grand Ramela Hotel
440,Shingu,JP,77.88,overcast clouds,33.7333,135.9833,Shingu UI Hotel
444,Rafaela,AR,79.99,broken clouds,-31.2503,-61.4867,Parra Hotel & Suites
446,Birjand,IR,84.67,haze,32.8663,59.2211,Birjand Tourist Hotel
448,Ferme-Neuve,CA,77.31,few clouds,46.7001,-75.4493,Pourvoirie Club Fontbrune Ltee
449,Alyangula,AU,70.86,clear sky,-13.8483,136.4192,Groote Eylandt Lodge
450,Baker City,US,93.6,clear sky,44.7749,-117.8344,Bridge Street Inn
454,Medea,DZ,75.25,clear sky,36.2642,2.7539,Hôtel M'Sallah
455,Iracoubo,GF,81.21,scattered clouds,5.4802,-53.2011,Le Gîte d’Iracoubo
456,Fougamou,GA,76.8,scattered clouds,-1.2154,10.5838,Résidence d'Hôtes Bapedy
458,Mazamari,PE,76.89,broken clouds,-11.3258,-74.5308,Hospedaje Ratto
460,Prince Rupert,CA,75.29,clear sky,54.3161,-130.3201,Crest Hotel
461,Bandarbeyla,SO,75.99,scattered clouds,9.4942,50.8122,JABIR HOTEL
462,Kununurra,AU,73.38,few clouds,-15.7667,128.7333,Hotel Kununurra
465,Vila Velha,BR,75.15,scattered clouds,-20.3297,-40.2925,Hotel Vitória Palace
466,Sampit,ID,72.52,overcast clouds,-2.5333,112.95,Aquarius Boutique Hotel Sampit
467,Jieshi,CN,83.19,clear sky,22.8134,115.8257,Yuehai Hotel
468,Jacona,US,92.39,few clouds,35.8906,-106.0422,Hotel At Cities of Gold
470,Pringsewu,ID,72.05,overcast clouds,-5.3582,104.9744,Urban Style by Front One
471,Pafos,CY,76.78,clear sky,34.7667,32.4167,Elysium Hotel
473,Redlands,US,99.41,few clouds,34.0556,-117.1825,Dynasty Suites Redlands
474,Mogadishu,SO,75.61,light rain,2.0371,45.3438,Hotel Juba
476,Umm Lajj,SA,85.84,few clouds,25.0213,37.2685,Moon light Furnished Units
477,Angoche,MZ,71.04,few clouds,-16.2325,39.9086,Guest House HESADA
480,Sabha,LY,85.86,scattered clouds,27.0377,14.4283,محطة ام الارانب -سبها مواصلات
481,Olinda,BR,73.13,mist,-8.0089,-34.8553,Flat Quatro Rodas Olinda
488,Miri,MY,75.34,scattered clouds,4.4148,114.0089,"Mega Hotel, Miri"
489,Ambulu,ID,72.14,clear sky,-8.345,113.6058,Hotel Ambulu Jember
490,Soyo,AO,70.18,scattered clouds,-6.1349,12.3689,Hospedaria ndozi'ame
492,Urumqi,CN,74.35,clear sky,43.801,87.6005,Hua Ling Grand Hotel Urumqi
495,Sioux Lookout,CA,71.67,broken clouds,50.1001,-91.917,Knobby's Fly-In Camps
496,Santa Cruz,BO,86.05,few clouds,-17.8,-63.1667,Aviador Hotel Boutique
501,Broome,US,80.71,broken clouds,42.2506,-75.833,Chenango Valley State Park
502,Aksu,CN,83.8,clear sky,41.1231,80.2644,Pudong Holiday Hotel
503,Bar Harbor,US,78.35,clear sky,44.3876,-68.2039,Atlantic Oceanside Hotel & Event Center
504,Georgiyevka,KZ,71.64,clear sky,43.0369,74.7114,Gostinitsa Imperiya
507,Southbridge,US,79.43,overcast clouds,42.0751,-72.0334,Southbridge Hotel & Conference Center
508,Toba,JP,78.8,heavy intensity rain,34.4833,136.85,ホテル アルティア鳥羽
510,Pangai,TO,75.9,overcast clouds,-19.8,-174.35,Ha'apai Beach Resort
512,Afogados Da Ingazeira,BR,76.59,overcast clouds,-7.7508,-37.6392,Hotel Brotas
513,Alta Floresta,BR,91.87,clear sky,-9.8756,-56.0861,Floresta Amazonica Hotel
514,Hit,IQ,92.23,clear sky,33.6416,42.8251,ࢪُبَمـا ؏ُـمَـࢪ
515,Asyut,EG,87.85,clear sky,27.181,31.1837,فندق ميس إيجيبت Miss Egypt Hotel
517,Fredericksburg,US,81.75,broken clouds,38.3032,-77.4605,Courtyard by Marriott Fredericksburg Historic District
520,Teloloapan,MX,74.77,broken clouds,18.35,-99.85,Hotel Las Palmas
524,San Cristobal,VE,80.78,scattered clouds,7.7669,-72.225,Pirineos
525,Kavaratti,IN,81.18,overcast clouds,10.5669,72.642,Green leaf
526,Matara,LK,77.07,overcast clouds,5.9485,80.5353,Amaloh Boutique Resort
527,Qianjiang,CN,79.2,overcast clouds,30.4151,112.8859,Shell Qianjiang City Qianjiang bus station Hotel
528,Russell,US,92.48,overcast clouds,32.3502,-85.1999,Macs
529,Milton,US,93.06,overcast clouds,34.1322,-84.3007,Pine Ridge Manufactured House
531,Westport,US,84.72,clear sky,41.1415,-73.3579,The Westport Inn
533,Arrecife,ES,78.78,clear sky,28.963,-13.5477,Hotel Lancelot
535,Bartica,GY,88.12,scattered clouds,6.4,-58.6167,Sloth Island Nature Resort
536,Hatta,IN,76.93,overcast clouds,24.1167,79.6,Agrawal Marriage Garden Bharat Tent House
537,Caracuaro,MX,86.86,broken clouds,19.0106,-101.1264,Hotel Juana
538,Hamilton,US,78.24,haze,39.1834,-84.5333,Six Acres Bed & Breakfast
540,Fallon,US,101.91,broken clouds,39.4735,-118.7774,Best Western Fallon Inn & Suites
541,Gigmoto,PH,79.88,overcast clouds,13.7796,124.39,Cj's Travellers Inn
543,Leiyang,CN,79.39,scattered clouds,26.4024,112.8591,Dongyang Hotel
545,Les Cayes,HT,85.37,scattered clouds,18.2,-73.75,Villa Orphee
547,Qalyub,EG,86.79,clear sky,30.1792,31.2056,كمال فهمى محمد فهمى
548,Paramirim,BR,72.46,broken clouds,-13.4425,-42.2389,Pousada Rio Pequeno
549,Banda Aceh,ID,77.52,light rain,5.5577,95.3222,OYO 884 Rumoh PMI Hotel
550,Sunrise Manor,US,98.69,scattered clouds,36.2111,-115.0731,Comfort Inn & Suites Las Vegas - Nellis
551,Pedernales,DO,91.44,clear sky,18.0384,-71.744,Hotel Costa Marina
559,Jardim,BR,84.65,clear sky,-21.4803,-56.1381,Estancia Hotel - Jardim MS
560,Tucuman,AR,80.6,few clouds,-26.8241,-65.2226,Dallas Hotel Tucuman
561,Teseney,ER,73.67,overcast clouds,15.11,36.6575,Sabrin Hotel
564,Huilong,CN,80.92,overcast clouds,31.8111,121.655,Hilton Garden Inn Qidong
565,Praia Da Vitoria,PT,75.76,few clouds,38.7333,-27.0667,Hotel Branco I
566,Auki,SB,79.16,scattered clouds,-8.7676,160.7034,Auki Motel
567,Nabire,ID,74.05,scattered clouds,-3.3667,135.4833,Hotel Nusantara I
568,Bidor,MY,75.92,overcast clouds,4.1139,101.2884,Hotel Bidor mk
569,Sakaiminato,JP,78.78,scattered clouds,35.55,133.2333,Italian pasley
570,Alberton,CA,77.13,broken clouds,46.8168,-64.0654,La Petite France B&B
572,Ankpa,NG,71.83,overcast clouds,7.3706,7.6253,AA Suites
573,Tarrafal,CV,81.39,overcast clouds,15.2833,-23.7667,Hotel Ixola
574,Atar,MR,88.65,moderate rain,20.5169,-13.0499,Oumou Elghoura
575,Martapura,ID,77.09,mist,-3.4167,114.85,Montana Hotel Syariah
577,Nam Phong,TH,82.09,clear sky,16.7023,102.8557,Koon Garden Resort
579,Coruripe,BR,73.8,overcast clouds,-10.1256,-36.1756,Pousada e Hotel Litoral Sul
580,Rawatsar,IN,88.29,scattered clouds,29.2833,74.3833,Honda Service Center
582,Bambanglipuro,ID,70.93,scattered clouds,-7.95,110.2833,Puri Brata
584,Dawlatabad,AF,87.67,clear sky,36.4141,64.9053,WASIM ASGAR KHAN
586,Isangel,VU,74.34,overcast clouds,-19.55,169.2667,Tanna Lodge
588,Iberia,US,86.97,light rain,29.9502,-91.7507,back to back rv park
589,Sabaudia,IT,79.2,clear sky,41.3003,13.0282,Oasi di Kufra
592,Pacific Grove,US,76.21,clear sky,36.6177,-121.9166,Lovers Point Inn
593,Sassandra,CI,74.52,broken clouds,4.95,-6.0833,la terrasse
594,Ures,MX,90.03,overcast clouds,29.4333,-110.4,HOTEL SAHUARO HOUSE
596,Portland,US,100.67,clear sky,45.5234,-122.6762,Embassy Suites by Hilton Portland Downtown
597,Cayenne,GF,82.09,broken clouds,4.9333,-52.3333,Hôtel Le Dronmi
599,Mariel,CU,75.34,broken clouds,22.9875,-82.7536,Casa De Alojamiento Marilda
601,Rota,ES,81.21,clear sky,36.6224,-6.3586,Hotel Duque de Nájera
603,Nam Som,TH,79.03,clear sky,17.7704,102.1895,โรงแรมวุฒิโชค น้ำโสม ที่พักไกล้วัดป่าภูก้อน ราคา 500฿
605,Laguna,US,96.08,clear sky,38.421,-121.4238,"Holiday Inn Express & Suites Elk Grove Central - Hwy 99, an IHG Hotel"
607,Salo,IT,84.29,moderate rain,45.6086,10.531,Park Hotel Casimiro Village - Blu Hotels
612,Port Townsend,US,93.18,clear sky,48.117,-122.7605,Aladdin Inn
613,Benxi,CN,71.92,clear sky,41.2886,123.765,Yaju Business Hotel
614,Atasu,KZ,77.43,scattered clouds,48.6814,71.6433,Dostyk
615,Goderich,CA,73.9,clear sky,43.7501,-81.7165,Harmony Inn
616,Silva Jardim,BR,71.58,few clouds,-22.6508,-42.3917,Pousada Ipuca
620,Kalmunai,LK,79.88,overcast clouds,7.4167,81.8167,VS Villa
624,Dakar,SN,82.53,scattered clouds,14.6937,-17.4441,Novotel Dakar
628,Kudahuvadhoo,MV,82.09,light rain,2.6708,72.8944,Niyama Private Islands Maldives
629,Tabuk,PH,74.55,overcast clouds,17.4189,121.4443,Golden Berries Hotel and Convention
635,Thunder Bay,CA,71.58,overcast clouds,48.4001,-89.3168,Victoria Inn Hotel and Convention Centre
638,Piran,SI,82.51,broken clouds,45.5278,13.5706,Hotel Histrion
639,Sile,TR,74.07,clear sky,41.1754,29.6133,Phellos Suites
642,Port Hawkesbury,CA,81.91,scattered clouds,45.6169,-61.3485,MacKenzie House Tourist Home B&B
643,Charagua,BO,89.17,clear sky,-19.8,-63.2167,Hotel
645,Athabasca,CA,73.81,scattered clouds,54.7169,-113.2854,Athabasca Lodge Motel
646,Cherat,PK,73.33,broken clouds,33.8233,71.8915,Faqeer Afzal Residency
648,Parana,AR,80.51,overcast clouds,-31.732,-60.5238,Howard Johnson by Wyndham Plaza Hotel Mayorazgo
649,Osakarovka,KZ,70.59,broken clouds,50.565,72.5692,Motel' Osakarovka
653,Jiazi,CN,81.91,clear sky,22.8779,116.067,Hotel Jin Hao
656,Kanniyakumari,IN,77.61,scattered clouds,8.0833,77.5667,Sparsa Kanyakumari
657,Mustafabad,PK,86.14,scattered clouds,30.8922,73.4989,Khawaja Shop
663,Dutse,NG,77.29,light rain,11.7594,9.3392,Central Mosque Galamawa
664,Marsa Matruh,EG,78.64,clear sky,31.3525,27.2453,Beau Site
666,Varadero,CU,83.16,moderate rain,23.1536,-81.2514,Hotel Tuxpan Varadero
667,Suntar,RU,70.47,clear sky,62.1444,117.6319,Гостевая квартира
668,Maragogi,BR,74.37,overcast clouds,-9.0122,-35.2225,Salinas do Maragogi All Inclusive Resort
671,Mozarlandia,BR,85.14,clear sky,-14.7447,-50.5706,Hotel Santa Mônica
672,Gizo,SB,81.55,overcast clouds,-8.103,156.8419,Imagination Island
673,Ruidoso,US,78.96,overcast clouds,33.3317,-105.673,Inn of the Mountain Gods
675,Pickerington,US,77.16,light rain,39.8842,-82.7535,Doodytime
677,Bataipora,BR,80.02,clear sky,-22.2953,-53.2711,Hotel Vale do Ivinhema
678,Sal Rei,CV,78.73,broken clouds,16.1833,-22.9167,Marine Club Beach Resort
